[
    {
        "title": "Câmi‘u’l-Kebîr",
        "longitude": "44.2148671",
        "latitude": "15.3532314"
    },
    {
        "title": "Eski San‘â Pazarı",
        "longitude": "44.2155556",
        "latitude": "15.3544444"
    },
    {
        "title": "Dâru'l İmâre (Hulefâ-yi Râşidîn Dönemi)",
        "longitude": "44.215",
        "latitude": "15.3527778"
    },
    {
        "title": "Dâru'l-İmâre (Emevi ve Abbasi Dönemi)",
        "longitude": "44.2181944",
        "latitude": "15.3617222"
    },
    {
        "title": "Cebbâne",
        "longitude": "44.218922",
        "latitude": "15.3617473"
    },
    {
        "title": "Tâvûs b. Keysân Mescidi",
        "longitude": "44.212077",
        "latitude": "15.3541842"
    },
    {
        "title": "Vehb b. Münebbih'in Mescidi",
        "longitude": "44.21105876",
        "latitude": "15.34814302"
    },
    {
        "title": "Vehb b. Münebbih'in Evi",
        "longitude": "44.210815",
        "latitude": "15.3479449"
    },
    {
        "title": "Hişâm b. Yusuf’un Evi",
        "longitude": "44.2128059",
        "latitude": "15.3488583"
    },
    {
        "title": "Ebû Halife Mescidi",
        "longitude": "44.21105876",
        "latitude": "15.34814302"
    },
    {
        "title": "Abdürrezzâk es-San‘ânî’nin Evi",
        "longitude": "44.2677778",
        "latitude": "15.3208333"
    },
    {
        "title": "Ma‘mer b. Râşid’in Kabri / Huzeyme Mezarlığı",
        "longitude": "44.2070759",
        "latitude": "15.3494472"
    },
    {
        "title": "Mescidu'l-Eczem",
        "longitude": "44.2033779",
        "latitude": "15.3548521"
    },
    {
        "title": "Gumdân Sarayı",
        "longitude": "44.2197035",
        "latitude": "15.3545864"
    },
    {
        "title": "Ferve b. Müseyk Mescidi",
        "longitude": "44.2183333",
        "latitude": "15.3633333"
    }
]