[
    {
        "title": "Mescidu Haccâc (مسجد الحجاج)",
        "longitude": "46.2944444",
        "latitude": "32.1877778"
    },
    {
        "title": "Dâru'l-İmâre (دار الإمارة)",
        "longitude": "46.29683115",
        "latitude": "32.18795872"
    },
    {
        "title": "Shatt al-Gharraf",
        "longitude": "46.08474691",
        "latitude": "32.15992211"
    },
    {
        "title": "Medrese Şarabiyye (مدرسة شرابية)",
        "longitude": "46.30844244",
        "latitude": "32.19097937"
    },
    {
        "title": "Dicle Nehri",
        "longitude": "46.31494788",
        "latitude": "32.15538973"
    },
    {
        "title": "Shatt al-Amara",
        "longitude": "46.22531575",
        "latitude": "32.55702165"
    },
    {
        "title": "Kubbetu'l Hadra",
        "longitude": "46.29280793",
        "latitude": "32.18627721"
    },
    {
        "title": "Wasıt Çarşısı (سوق واسط)",
        "longitude": "46.29695528",
        "latitude": "32.18662491"
    },
    {
        "title": "Derb Harrazin (درب الخرازين)",
        "longitude": "46.29695528",
        "latitude": "32.18662491"
    },
    {
        "title": "Dimas (Hapishane)",
        "longitude": "46.29770447",
        "latitude": "32.19170543"
    },
    {
        "title": "Vasıt Şehir Surları",
        "longitude": "46.29899269",
        "latitude": "32.17140434"
    }
]